[
  {
    "_id": "6891c542409a5c535bd862cc",
    "name": "Test Hiking Trail",
    "description": "A beautiful test hiking trail for validation",
    "userId": "6891c542409a5c535bd862c8",
    "type": "hiking",
    "country": "Test Country",
    "logistics": "Start from test parking lot",
    "spots_names": [
      "Start Point",
      "Rest Stop",
      "End Point"
    ],
    "spots": [
      {
        "name": "Start Point",
        "lat": 45.1234,
        "lng": 2.5678,
        "_id": "6891c542409a5c535bd862cd"
      },
      {
        "name": "Rest Stop",
        "lat": 45.2345,
        "lng": 2.6789,
        "_id": "6891c542409a5c535bd862ce"
      },
      {
        "name": "End Point",
        "lat": 45.3456,
        "lng": 2.789,
        "_id": "6891c542409a5c535bd862cf"
      }
    ],
    "daily_info": [
      {
        "day": 1,
        "description": "Day 1 hike from start to rest stop",
        "day_locations": [
          {
            "name": "Start Point",
            "lat": 45.1234,
            "lng": 2.5678,
            "_id": "6891c542409a5c535bd862d1"
          },
          {
            "name": "Rest Stop",
            "lat": 45.2345,
            "lng": 2.6789,
            "_id": "6891c542409a5c535bd862d2"
          }
        ],
        "distance_km": 8,
        "_id": "6891c542409a5c535bd862d0"
      }
    ],
    "total_distance_km": 8,
    "weather": [
      {
        "degrees": 22,
        "description": "sunny",
        "_id": "6891c542409a5c535bd862d3"
      },
      {
        "degrees": 24,
        "description": "partly cloudy",
        "_id": "6891c542409a5c535bd862d4"
      },
      {
        "degrees": 20,
        "description": "sunny",
        "_id": "6891c542409a5c535bd862d5"
      }
    ],
    "userRouteName": "My Test Route",
    "userRouteDescription": "This is a test route to verify saving functionality",
    "createdAt": "2025-08-05T08:48:02.765Z",
    "updatedAt": "2025-08-05T08:48:02.765Z",
    "__v": 0
  },
  {
    "_id": "6891cee8702232265d67b22a",
    "name": "Sea of Galilee Cycling Adventure",
    "description": "This 2-day cycling trek explores the scenic beauty of the Sea of Galilee (Kinneret) region in northern Israel. It offers a mix of historical sites, natural landscapes, and charming towns. The trek is designed for moderate fitness levels and covers a total distance suitable for two days of cycling. Each day's distance is kept under 60 kilometers.",
    "userId": "6891c30a0fefa4867987a89c",
    "type": "cycling",
    "country": "israel",
    "logistics": "The trek begins in Tiberias. Tiberias is easily accessible by public bus from major cities like Jerusalem, Tel Aviv, and Haifa. Ben Gurion Airport (TLV) is the main international airport. From the airport, you can take a train to one of the central bus stations and then a bus to Tiberias. Bike rentals are available in Tiberias.",
    "spots_names": [
      "Tiberias",
      "Capernaum",
      "Tabgha",
      "Mount of Beatitudes",
      "Ginosar (Nof Ginosar)",
      "Tiberias"
    ],
    "spots": [
      {
        "name": "Tiberias",
        "lat": 32.7925,
        "lng": 35.5328,
        "_id": "6891cee8702232265d67b22b"
      },
      {
        "name": "Capernaum",
        "lat": 32.8827,
        "lng": 35.5234,
        "_id": "6891cee8702232265d67b22c"
      },
      {
        "name": "Tabgha",
        "lat": 32.8867,
        "lng": 35.5158,
        "_id": "6891cee8702232265d67b22d"
      },
      {
        "name": "Mount of Beatitudes",
        "lat": 32.8758,
        "lng": 35.5269,
        "_id": "6891cee8702232265d67b22e"
      },
      {
        "name": "Ginosar (Nof Ginosar)",
        "lat": 32.8486,
        "lng": 35.5142,
        "_id": "6891cee8702232265d67b22f"
      },
      {
        "name": "Tiberias",
        "lat": 32.7925,
        "lng": 35.5328,
        "_id": "6891cee8702232265d67b230"
      }
    ],
    "daily_info": [
      {
        "day": 1,
        "description": "The first day takes you from Tiberias along the northern shores of the Sea of Galilee, exploring significant historical and religious sites. You'll cycle to Capernaum, Tabgha, and the Mount of Beatitudes before settling in Ginosar for the night. Staying overnight in Ginosar.",
        "day_locations": [
          {
            "name": "Tiberias",
            "lat": 32.7925,
            "lng": 35.5328,
            "_id": "6891cee8702232265d67b232"
          },
          {
            "name": "Capernaum",
            "lat": 32.8827,
            "lng": 35.5234,
            "_id": "6891cee8702232265d67b233"
          },
          {
            "name": "Tabgha",
            "lat": 32.8867,
            "lng": 35.5158,
            "_id": "6891cee8702232265d67b234"
          },
          {
            "name": "Mount of Beatitudes",
            "lat": 32.8758,
            "lng": 35.5269,
            "_id": "6891cee8702232265d67b235"
          },
          {
            "name": "Ginosar (Nof Ginosar)",
            "lat": 32.8486,
            "lng": 35.5142,
            "_id": "6891cee8702232265d67b236"
          }
        ],
        "distance_km": 30,
        "_id": "6891cee8702232265d67b231"
      },
      {
        "day": 2,
        "description": "The second day involves a scenic ride back to Tiberias from Ginosar. This allows you to enjoy more of the Sea of Galilee's shoreline and potentially stop at other points of interest along the way. The trip ends in Tiberias.",
        "day_locations": [
          {
            "name": "Ginosar (Nof Ginosar)",
            "lat": 32.8486,
            "lng": 35.5142,
            "_id": "6891cee8702232265d67b238"
          },
          {
            "name": "Tiberias",
            "lat": 32.7925,
            "lng": 35.5328,
            "_id": "6891cee8702232265d67b239"
          }
        ],
        "distance_km": 15,
        "_id": "6891cee8702232265d67b237"
      }
    ],
    "total_distance_km": 45,
    "weather": [],
    "userRouteName": "israel trip",
    "userRouteDescription": "long cycle",
    "createdAt": "2025-08-05T09:29:12.164Z",
    "updatedAt": "2025-08-05T09:29:12.164Z",
    "__v": 0
  },
  {
    "_id": "6891cfa2702232265d67b2d0",
    "name": "Lake Baikal Coastal Trail (Listvyanka Loop)",
    "description": "This 2-day trek explores a scenic section of the Lake Baikal shoreline near Listvyanka. It offers stunning views of the lake, forests, and surrounding mountains. The trail is moderately challenging with some elevation changes. The total distance is approximately 24 km, averaging 12 km per day.",
    "userId": "6891c30a0fefa4867987a89c",
    "type": "hiking",
    "country": "russia",
    "logistics": "The trek starts and ends in Listvyanka. You can reach Listvyanka from Irkutsk by bus or taxi. Buses depart regularly from the Irkutsk bus station. The trail starts from the main street of Listvyanka and follows the well-marked path along the lake.",
    "spots_names": [
      "Listvyanka (Start)",
      "Nikola Settlement",
      "Lake Baikal Shoreline",
      "Bolshiye Koty",
      "Bolshiye Koty (Night 1)",
      "Lake Baikal Shoreline",
      "Nikola Settlement",
      "Listvyanka (End)"
    ],
    "spots": [
      {
        "name": "Listvyanka (Start)",
        "lat": 51.8667,
        "lng": 104.85,
        "_id": "6891cfa2702232265d67b2d1"
      },
      {
        "name": "Nikola Settlement",
        "lat": 51.8833,
        "lng": 104.8167,
        "_id": "6891cfa2702232265d67b2d2"
      },
      {
        "name": "Lake Baikal Shoreline",
        "lat": 51.9,
        "lng": 104.7833,
        "_id": "6891cfa2702232265d67b2d3"
      },
      {
        "name": "Bolshiye Koty",
        "lat": 51.9167,
        "lng": 104.75,
        "_id": "6891cfa2702232265d67b2d4"
      },
      {
        "name": "Bolshiye Koty (Night 1)",
        "lat": 51.9167,
        "lng": 104.75,
        "_id": "6891cfa2702232265d67b2d5"
      },
      {
        "name": "Lake Baikal Shoreline",
        "lat": 51.9,
        "lng": 104.7833,
        "_id": "6891cfa2702232265d67b2d6"
      },
      {
        "name": "Nikola Settlement",
        "lat": 51.8833,
        "lng": 104.8167,
        "_id": "6891cfa2702232265d67b2d7"
      },
      {
        "name": "Listvyanka (End)",
        "lat": 51.8667,
        "lng": 104.85,
        "_id": "6891cfa2702232265d67b2d8"
      }
    ],
    "daily_info": [
      {
        "day": 1,
        "description": "Hike from Listvyanka to Bolshiye Koty, following the picturesque shoreline of Lake Baikal. The trail meanders through forests and offers stunning views. Spend the night in a guesthouse or campsite in Bolshiye Koty.",
        "day_locations": [
          {
            "name": "Listvyanka (Start)",
            "lat": 51.8667,
            "lng": 104.85,
            "_id": "6891cfa2702232265d67b2da"
          },
          {
            "name": "Nikola Settlement",
            "lat": 51.8833,
            "lng": 104.8167,
            "_id": "6891cfa2702232265d67b2db"
          },
          {
            "name": "Lake Baikal Shoreline",
            "lat": 51.9,
            "lng": 104.7833,
            "_id": "6891cfa2702232265d67b2dc"
          },
          {
            "name": "Bolshiye Koty",
            "lat": 51.9167,
            "lng": 104.75,
            "_id": "6891cfa2702232265d67b2dd"
          },
          {
            "name": "Bolshiye Koty (Night 1)",
            "lat": 51.9167,
            "lng": 104.75,
            "_id": "6891cfa2702232265d67b2de"
          }
        ],
        "distance_km": 12,
        "_id": "6891cfa2702232265d67b2d9"
      },
      {
        "day": 2,
        "description": "Return hike from Bolshiye Koty back to Listvyanka, retracing your steps along the Lake Baikal shoreline. Enjoy the familiar views from a different perspective.",
        "day_locations": [
          {
            "name": "Bolshiye Koty",
            "lat": 51.9167,
            "lng": 104.75,
            "_id": "6891cfa2702232265d67b2e0"
          },
          {
            "name": "Lake Baikal Shoreline",
            "lat": 51.9,
            "lng": 104.7833,
            "_id": "6891cfa2702232265d67b2e1"
          },
          {
            "name": "Nikola Settlement",
            "lat": 51.8833,
            "lng": 104.8167,
            "_id": "6891cfa2702232265d67b2e2"
          },
          {
            "name": "Listvyanka (End)",
            "lat": 51.8667,
            "lng": 104.85,
            "_id": "6891cfa2702232265d67b2e3"
          }
        ],
        "distance_km": 12,
        "_id": "6891cfa2702232265d67b2df"
      }
    ],
    "total_distance_km": 24,
    "weather": [],
    "userRouteName": "RU",
    "userRouteDescription": "Listvyanka Loop",
    "createdAt": "2025-08-05T09:32:18.419Z",
    "updatedAt": "2025-08-05T09:32:18.419Z",
    "__v": 0
  },
  {
    "_id": "6891d30c702232265d67b33a",
    "name": "Yarkon River Loop Hike",
    "description": "This loop hike explores the Yarkon River Park, offering a mix of urban nature and river views. It's a one-day trek with a total distance of approximately 12 kilometers, making it a moderate and enjoyable hike suitable for most fitness levels. The trek showcases different aspects of the park, from its developed sections to its more natural areas.",
    "userId": "6891c30a0fefa4867987a89c",
    "type": "hiking",
    "country": "tel aviv",
    "logistics": "The trek starts and ends at the parking lot near the Tel Aviv University train station, which provides convenient public transportation access. You can reach the starting point by train to Tel Aviv University station, or by bus lines serving the university area. The trail is well-marked and mostly flat.",
    "spots_names": [
      "Yarkon Park Entrance (Tel Aviv University)",
      "Seven Mills Trailhead",
      "The Rock Garden",
      "Yarkon River Birdwatching Point",
      "The Botanical Garden",
      "Yarkon Park Entrance (Tel Aviv University)"
    ],
    "spots": [
      {
        "name": "Yarkon Park Entrance (Tel Aviv University)",
        "lat": 32.104,
        "lng": 34.811,
        "_id": "6891d30c702232265d67b33b"
      },
      {
        "name": "Seven Mills Trailhead",
        "lat": 32.108,
        "lng": 34.823,
        "_id": "6891d30c702232265d67b33c"
      },
      {
        "name": "The Rock Garden",
        "lat": 32.109,
        "lng": 34.819,
        "_id": "6891d30c702232265d67b33d"
      },
      {
        "name": "Yarkon River Birdwatching Point",
        "lat": 32.105,
        "lng": 34.809,
        "_id": "6891d30c702232265d67b33e"
      },
      {
        "name": "The Botanical Garden",
        "lat": 32.112,
        "lng": 34.813,
        "_id": "6891d30c702232265d67b33f"
      },
      {
        "name": "Yarkon Park Entrance (Tel Aviv University)",
        "lat": 32.104,
        "lng": 34.811,
        "_id": "6891d30c702232265d67b340"
      }
    ],
    "daily_info": [
      {
        "day": 1,
        "description": "The hike starts at the Yarkon Park entrance near Tel Aviv University, follows the Seven Mills Trail, passes the Rock Garden, continues to the birdwatching point along the Yarkon River, then loops back through the Botanical Garden and ends at the starting point.",
        "day_locations": [
          {
            "name": "Yarkon Park Entrance (Tel Aviv University)",
            "lat": 32.104,
            "lng": 34.811,
            "_id": "6891d30c702232265d67b342"
          },
          {
            "name": "Seven Mills Trailhead",
            "lat": 32.108,
            "lng": 34.823,
            "_id": "6891d30c702232265d67b343"
          },
          {
            "name": "The Rock Garden",
            "lat": 32.109,
            "lng": 34.819,
            "_id": "6891d30c702232265d67b344"
          },
          {
            "name": "Yarkon River Birdwatching Point",
            "lat": 32.105,
            "lng": 34.809,
            "_id": "6891d30c702232265d67b345"
          },
          {
            "name": "The Botanical Garden",
            "lat": 32.112,
            "lng": 34.813,
            "_id": "6891d30c702232265d67b346"
          },
          {
            "name": "Yarkon Park Entrance (Tel Aviv University)",
            "lat": 32.104,
            "lng": 34.811,
            "_id": "6891d30c702232265d67b347"
          }
        ],
        "distance_km": 12,
        "_id": "6891d30c702232265d67b341"
      }
    ],
    "total_distance_km": 12,
    "weather": [],
    "userRouteName": "tel aviv route",
    "userRouteDescription": "close to afeka",
    "createdAt": "2025-08-05T09:46:52.704Z",
    "updatedAt": "2025-08-05T09:46:52.704Z",
    "__v": 0
  },
  {
    "_id": "6891d62e702232265d67b3e8",
    "name": "Hike around Lake Ånnsjön, Vålådalen Nature Reserve",
    "description": "This is a beautiful 3-day circular hike around Lake Ånnsjön in the Vålådalen Nature Reserve, a classic Swedish mountain area. You'll experience varied terrain, from forests to open marshes and mountain plateaus. The trail offers stunning views of the lake and surrounding mountains. The total distance is approximately 33 kilometers, with an average of 11 kilometers per day.",
    "userId": "6891c30a0fefa4867987a89c",
    "type": "hiking",
    "country": "sweden",
    "logistics": "The starting point is Vålådalen Nature Reserve entrance. To get to Vålådalen, you can take a train to Undersåker or Duved and then a local bus to Vålådalen. Alternatively, you can drive to Vålådalen and park your car at the designated parking area near the Vålådalen Mountain Station. The trail is well-marked with orange markings.",
    "spots_names": [
      "Vålådalen",
      "Stensdalen Mountain Cabin",
      "Blanktjärnarna",
      "Pyramiderna",
      "Issjödalen",
      "Vålådalen"
    ],
    "spots": [
      {
        "name": "Vålådalen",
        "lat": 63.279,
        "lng": 13.0631,
        "_id": "6891d62e702232265d67b3e9"
      },
      {
        "name": "Stensdalen Mountain Cabin",
        "lat": 63.3123,
        "lng": 13.1754,
        "_id": "6891d62e702232265d67b3ea"
      },
      {
        "name": "Blanktjärnarna",
        "lat": 63.2473,
        "lng": 12.9915,
        "_id": "6891d62e702232265d67b3eb"
      },
      {
        "name": "Pyramiderna",
        "lat": 63.2163,
        "lng": 12.9723,
        "_id": "6891d62e702232265d67b3ec"
      },
      {
        "name": "Issjödalen",
        "lat": 63.2389,
        "lng": 13.0647,
        "_id": "6891d62e702232265d67b3ed"
      },
      {
        "name": "Vålådalen",
        "lat": 63.279,
        "lng": 13.0631,
        "_id": "6891d62e702232265d67b3ee"
      }
    ],
    "daily_info": [
      {
        "day": 1,
        "description": "The first day takes you from Vålådalen to Stensdalen Mountain Cabin. The trail ascends gradually through forests and then opens up to stunning views of the surrounding mountains. Stensdalen offers a comfortable mountain cabin with basic amenities.",
        "day_locations": [
          {
            "name": "Vålådalen",
            "lat": 63.279,
            "lng": 13.0631,
            "_id": "6891d62e702232265d67b3f0"
          },
          {
            "name": "Stensdalen Mountain Cabin",
            "lat": 63.3123,
            "lng": 13.1754,
            "_id": "6891d62e702232265d67b3f1"
          }
        ],
        "distance_km": 13,
        "_id": "6891d62e702232265d67b3ef"
      },
      {
        "day": 2,
        "description": "From Stensdalen, hike back towards Vålådalen, but detour to the mesmerizing turquoise lakes of Blanktjärnarna and the unusual geological formations known as Pyramiderna. Spend the night in Blanktjärnarna wind shelter.",
        "day_locations": [
          {
            "name": "Stensdalen Mountain Cabin",
            "lat": 63.3123,
            "lng": 13.1754,
            "_id": "6891d62e702232265d67b3f3"
          },
          {
            "name": "Blanktjärnarna",
            "lat": 63.2473,
            "lng": 12.9915,
            "_id": "6891d62e702232265d67b3f4"
          },
          {
            "name": "Pyramiderna",
            "lat": 63.2163,
            "lng": 12.9723,
            "_id": "6891d62e702232265d67b3f5"
          }
        ],
        "distance_km": 11,
        "_id": "6891d62e702232265d67b3f2"
      },
      {
        "day": 3,
        "description": "The final day takes you from the Pyramiderna back to Vålådalen. The route passes through the glacial valley of Issjödalen, offering a unique landscape before returning to the starting point.",
        "day_locations": [
          {
            "name": "Pyramiderna",
            "lat": 63.2163,
            "lng": 12.9723,
            "_id": "6891d62e702232265d67b3f7"
          },
          {
            "name": "Issjödalen",
            "lat": 63.2389,
            "lng": 13.0647,
            "_id": "6891d62e702232265d67b3f8"
          },
          {
            "name": "Vålådalen",
            "lat": 63.279,
            "lng": 13.0631,
            "_id": "6891d62e702232265d67b3f9"
          }
        ],
        "distance_km": 9,
        "_id": "6891d62e702232265d67b3f6"
      }
    ],
    "total_distance_km": 33,
    "weather": [],
    "userRouteName": "sweden",
    "userRouteDescription": "sweden hike",
    "createdAt": "2025-08-05T10:00:14.122Z",
    "updatedAt": "2025-08-05T10:00:14.122Z",
    "__v": 0
  }
]